,city,latitude,longitude,temperature,humidity,cloudiness,wind speed,country
0,Mataura,-46.1927,168.8643,46.27,73,5,2.71,NZ
1,Ushuaia,-54.8,-68.3,30.94,91,77,3.49,AR
2,Sun City West,33.662,-112.3413,98.29,19,4,2.73,US
3,Hasaki,35.7333,140.8333,84.45,71,87,22.86,JP
4,Ribeira Grande,38.5167,-28.7,73.02,91,11,3.06,PT
5,Butaritari,3.0707,172.7902,82.87,78,33,12.55,KI
6,Sangar,63.9242,127.4739,70.99,52,37,1.5,RU
7,Tezu,27.9167,96.1667,95.34,49,7,3.56,IN
8,Bilibino,68.0546,166.4372,79.43,36,94,22.44,RU
9,Punta Arenas,-53.15,-70.9167,35.11,80,66,16.53,CL
10,Okhotsk,59.3833,143.3,65.1,67,0,11.56,RU
11,Mar del Plata,-38.0023,-57.5575,49.53,72,100,15.55,AR
12,Albany,42.6001,-73.9662,71.35,89,92,4.61,US
13,Uíge,-7.6087,15.0613,59.27,86,77,2.26,AO
14,Pevek,69.7008,170.3133,42.04,90,38,27.63,RU
15,Bredasdorp,-34.5322,20.0403,44.29,86,0,5.06,ZA
16,Airai,-8.9266,125.4092,71.56,55,72,5.17,TL
17,Qaanaaq,77.484,-69.3632,39.99,70,0,2.26,GL
18,Nong Bua,15.8646,100.5858,92.7,60,97,6.53,TH
19,Sarangani,5.4033,125.4636,82.54,75,100,10.76,PH
20,Upernavik,72.7868,-56.1549,42.91,81,33,6.98,GL
21,New Norfolk,-42.7826,147.0587,52.14,68,100,2.37,AU
22,Aleksandrov Gay,50.147,48.5704,76.82,42,0,9.62,RU
23,Busselton,-33.65,115.3333,66.81,78,93,26.15,AU
24,Nikolskoye,59.7035,30.7861,66.0,71,15,3.96,RU
25,Stary Oskol,51.2967,37.8417,71.87,61,86,8.84,RU
26,Ponta do Sol,32.6667,-17.1,67.73,73,11,6.33,PT
27,Nemuro,43.3236,145.575,60.96,84,86,9.04,JP
28,Cururupu,-1.8283,-44.8683,72.12,88,5,0.78,BR
29,Vaitape,-16.5167,-151.75,80.22,76,100,16.13,PF
30,Sondershausen,51.3667,10.8667,61.83,83,70,2.04,DE
31,Hermanus,-34.4187,19.2345,48.52,83,1,12.15,ZA
32,Barrow,71.2906,-156.7887,48.83,90,95,22.17,US
33,Bluff,-46.6,168.3333,49.6,72,8,4.68,NZ
34,Bandarbeyla,9.4942,50.8122,86.52,56,10,21.79,SO
35,Yellowknife,62.456,-114.3525,63.3,56,66,8.57,CA
36,Rikitea,-23.1203,-134.9692,70.47,78,5,19.13,PF
37,Vaini,-21.2,-175.2,72.97,75,16,23.51,TO
38,Saint Paul Harbor,57.79,-152.4072,59.22,75,22,6.62,US
39,Kikwit,-5.041,18.8162,75.56,39,81,1.41,CD
40,Nanortalik,60.1432,-45.2371,42.69,87,17,2.89,GL
41,Vostok,46.4856,135.8833,79.59,52,37,3.96,RU
42,Hithadhoo,-0.6,73.0833,83.12,69,93,7.76,MV
43,Cuamba,-14.8031,36.5372,65.34,73,76,3.67,MZ
44,Mahébourg,-20.4081,57.7,71.19,71,73,14.52,MU
45,Puerto Ayora,-0.7393,-90.3518,67.75,88,56,8.14,EC
46,Isiro,2.7739,27.616,69.13,96,38,1.41,CD
47,São Filipe,14.8961,-24.4956,75.04,83,71,13.22,CV
48,Aquiraz,-3.9014,-38.3911,74.16,77,67,11.65,BR
49,Uulu,58.2789,24.5774,63.61,72,68,6.13,EE
50,Jamestown,42.097,-79.2353,68.5,89,40,7.07,US
51,Barcelos,41.5388,-8.6151,61.09,79,0,3.4,PT
52,San Quintín,30.4833,-115.95,67.15,86,0,12.39,MX
53,Pundaguitan,6.3711,126.1689,82.36,77,90,18.1,PH
54,Castro,-24.7911,-50.0119,54.14,93,100,3.11,BR
55,Novoshcherbinovskaya,46.4767,38.6476,75.99,55,100,15.21,RU
56,Hobart,-42.8794,147.3294,53.04,67,95,6.96,AU
57,Port Macquarie,-31.4333,152.9167,67.96,57,52,11.63,AU
58,Provideniya,64.3833,-173.3,56.16,80,70,9.24,RU
59,Garachiné,8.0647,-78.3628,77.85,82,92,1.61,PA
60,Vila Franca do Campo,37.7167,-25.4333,70.54,90,56,5.93,PT
61,Mount Gambier,-37.8333,140.7667,54.12,65,40,11.63,AU
62,Bayanday,53.0661,105.5139,69.98,73,89,3.87,RU
63,Geraldton,-28.7667,114.6,72.28,38,0,14.63,AU
64,Kapaa,22.0752,-159.319,78.64,82,95,17.94,US
65,Pilot Butte,50.4668,-104.4178,59.74,82,19,6.62,CA
66,Sola,-13.8833,167.55,81.43,83,82,22.77,VU
67,Vao,-22.6667,167.4833,71.22,82,15,16.37,NC
68,Quang Ngai,15.1167,108.8,96.3,45,40,11.01,VN
69,Babu,24.4167,111.5167,91.51,60,100,6.4,CN
70,Port Augusta,-32.5,137.7667,60.82,73,50,13.29,AU
71,Biak,-0.9131,122.8766,82.15,69,89,11.59,ID
72,Khatanga,71.9667,102.5,47.62,61,100,9.48,RU
73,Bethel,41.3712,-73.414,72.75,71,47,5.48,US
74,Jianning,27.8333,113.15,83.5,88,69,6.4,CN
75,Thompson,55.7435,-97.8558,57.45,95,87,5.88,CA
76,Acarí,-15.4311,-74.6158,59.32,67,36,3.38,PE
77,Santa Lucía,27.9117,-15.5407,66.11,83,51,16.26,ES
78,Plastun,44.7561,136.2939,73.4,66,1,5.28,RU
79,Amapá,1.0,-52.0,70.68,96,14,1.23,BR
80,Piaçabuçu,-10.4056,-36.4344,74.5,78,77,11.74,BR
81,Zeya,53.75,127.2667,71.06,88,100,2.37,RU
82,Saint-Philippe,-21.3585,55.7679,69.57,69,60,10.25,RE
83,Atuona,-9.8,-139.0333,80.13,73,5,26.73,PF
84,Dikson,73.5069,80.5464,38.75,87,94,14.5,RU
85,Avarua,-21.2078,-159.775,71.11,86,66,19.89,CK
86,Portland,45.5234,-122.6762,83.39,34,4,2.68,US
87,Khovd,48.0056,91.6419,77.72,24,38,5.7,MN
88,Bilsanda,28.25,79.95,99.88,45,0,5.06,IN
89,Ōarai,36.3167,140.6,84.04,68,87,0.74,JP
90,Cabo San Lucas,22.8909,-109.9124,80.29,76,39,9.8,MX
91,Yokote,39.3,140.5667,75.88,94,81,0.43,JP
92,Laas,46.6166,10.7002,65.37,53,14,2.44,IT
93,Abashiri,44.0213,144.2697,70.09,71,87,9.46,JP
94,Kavieng,-2.5744,150.7967,84.29,70,100,2.42,PG
95,Hirara,24.8,125.2833,85.5,80,87,14.81,JP
96,Aswān,24.0934,32.907,95.4,13,0,13.04,EG
97,Yokadouma,3.5167,15.05,68.68,95,79,2.46,CM
98,Bara,10.3744,10.7288,73.47,92,100,9.15,NG
99,Manali,13.1667,80.2667,91.15,60,59,8.55,IN
100,Cape Town,-33.9258,18.4232,50.68,84,0,6.64,ZA
101,Port Lincoln,-34.7333,135.8667,56.93,64,59,8.08,AU
102,Saskylakh,71.9167,114.0833,42.46,88,100,15.7,RU
103,Malidong,13.0133,123.4596,86.9,69,26,3.62,PH
104,Teluknaga,-6.0989,106.6381,86.05,54,18,7.78,ID
105,Khor,47.8861,134.9464,81.14,72,2,3.6,RU
106,Troy,42.6056,-83.1499,81.03,65,7,12.41,US
107,Katsuura,35.1333,140.3,82.72,83,100,19.28,JP
108,Cayenne,4.9333,-52.3333,77.61,92,27,5.82,GF
109,Bambous Virieux,-20.3428,57.7575,71.15,71,77,14.54,MU
110,Gladstone,-23.85,151.25,70.02,37,14,8.86,AU
111,Constitución,-35.3333,-72.4167,49.69,79,100,7.56,CL
112,Bambanglipuro,-7.95,110.2833,82.13,63,31,15.86,ID
113,Chui,-33.6971,-53.4616,45.93,92,9,6.53,UY
114,Vung Tau,10.346,107.0843,85.75,67,11,7.2,VN
115,Hilo,19.7297,-155.09,78.89,74,85,11.07,US
116,Hamilton,39.1834,-84.5333,78.75,77,1,5.3,US
117,Florianópolis,-27.6146,-48.5012,62.98,73,87,9.64,BR
118,Lata,40.1629,-8.3327,60.08,86,0,2.39,PT
119,Muros,42.7762,-9.0603,63.23,80,0,2.42,ES
120,Teknāf,20.8624,92.3058,87.03,72,97,7.27,BD
121,Tasiilaq,65.6145,-37.6368,39.31,86,100,2.51,GL
122,São João da Barra,-21.6403,-41.0511,72.41,85,77,11.61,BR
123,Loukhi,66.0764,33.0381,62.08,85,56,4.41,RU
124,Ndélé,8.4109,20.6473,69.15,94,57,6.38,CF
125,Mórrope,-6.5417,-80.0111,61.05,84,19,9.28,PE
126,Lerwick,60.1545,-1.1494,55.47,81,1,10.58,GB
127,Tuktoyaktuk,69.4541,-133.0374,60.94,74,82,6.35,CA
128,Iberia,29.9502,-91.7507,73.2,93,84,6.53,US
129,Kahului,20.8947,-156.47,79.77,72,87,6.24,US
130,Jalu,29.0331,21.5482,82.81,45,0,7.83,LY
131,Esperance,-33.8667,121.9,69.69,69,72,19.84,AU
132,Broome,42.2506,-75.833,68.41,83,20,3.94,US
133,Huilong,31.8111,121.655,86.61,76,100,5.68,CN
134,Miraflores,19.2167,-98.8083,61.48,71,64,3.65,MX
135,Bud,39.447,-86.1758,75.74,91,0,6.42,US
136,Maceió,-9.6658,-35.7353,75.96,82,50,13.42,BR
137,Pokhara,28.2333,83.9833,82.15,77,90,3.78,NP
138,North Bend,43.4065,-124.2243,59.36,83,1,1.81,US
139,Fairbanks,64.8378,-147.7164,61.59,69,51,5.17,US
140,Sālūr,18.5333,83.2167,93.27,57,77,3.0,IN
141,Kiruna,67.8557,20.2251,54.81,83,6,10.49,SE
142,Zhigansk,66.7697,123.3711,56.12,57,58,10.67,RU
143,Bengkulu,-3.8004,102.2655,85.84,62,2,12.97,ID
144,Forsytheganj,52.6333,29.7333,68.09,90,91,5.61,BY
145,Yulara,-25.2406,130.9889,68.74,29,0,11.65,AU
146,Alofi,-19.0595,-169.9187,74.75,83,37,21.5,NU
147,Atambua,-9.1061,124.8925,82.33,47,85,3.53,ID
148,Carnarvon,-24.8667,113.6333,74.61,33,0,8.52,AU
149,Huarmey,-10.0681,-78.1522,59.74,86,15,6.76,PE
150,Port Alfred,-33.5906,26.891,55.06,68,75,5.97,ZA
151,Tambopata,-12.7333,-69.1833,66.15,81,0,1.41,PE
152,Artena,41.7405,12.9137,75.99,52,0,1.45,IT
153,Kahuta,33.5913,73.3868,94.69,57,22,1.45,PK
154,Half Moon Bay,37.4636,-122.4286,60.12,86,55,2.73,US
155,Lokosovo,61.1333,74.8167,62.35,50,90,10.63,RU
156,Raudeberg,61.9875,5.1352,57.92,80,84,11.36,NO
157,Walvis Bay,-22.9575,14.5053,69.67,27,0,17.67,NA
158,Rio de Janeiro,-22.9028,-43.2075,70.83,83,22,2.48,BR
159,Ismailia,30.6043,32.2723,79.02,75,0,3.78,EG
160,Wewak,-3.5534,143.6268,83.73,70,55,7.63,PG
161,Klaksvík,62.2266,-6.589,48.83,92,100,21.81,FO
162,Laguna,38.421,-121.4238,72.28,43,12,3.98,US
163,Severo-Kuril'sk,50.6789,156.125,53.37,85,93,18.57,RU
164,Gigmoto,13.7796,124.39,86.7,68,89,4.25,PH
165,Guerrero Negro,27.9769,-114.0611,67.6,85,0,11.77,MX
166,Stornoway,58.2093,-6.3865,52.14,89,97,17.07,GB
167,Kupang,-10.1667,123.5833,85.44,42,56,16.67,ID
168,Wu’an,31.6836,112.0044,87.58,66,0,7.78,CN
169,Pochutla,15.7432,-96.4661,78.66,81,100,4.5,MX
170,Eatonton,33.3268,-83.3885,76.53,83,0,1.9,US
171,La Asuncion,11.0333,-63.8628,78.62,94,14,6.17,VE
172,Vestmannaeyjar,63.4427,-20.2734,50.67,87,98,3.18,IS
173,Iqaluit,63.7506,-68.5145,42.78,94,62,1.7,CA
174,Husavik,66.0449,-17.3389,43.86,82,83,7.2,IS
175,Hong Kong,22.2855,114.1577,88.65,67,58,14.14,HK
176,Tomatlán,19.9333,-105.25,75.78,92,100,2.75,MX
177,Koulamoutou,-1.1303,12.4736,69.8,91,25,0.94,GA
178,Severo-Yeniseyskiy,60.3725,93.0408,64.27,67,34,4.56,RU
179,Kismayo,-0.3582,42.5454,79.68,77,32,19.82,SO
180,Ambilobe,-13.2,49.05,69.24,84,100,1.28,MG
181,Coahuayana Viejo,18.7333,-103.6833,78.8,81,100,2.21,MX
182,Santa Cruz,30.4202,-9.5982,71.08,79,20,2.15,MA
183,Agboville,5.928,-4.2132,68.76,95,93,2.35,CI
184,Tanout,14.9709,8.8879,82.78,58,98,16.73,NE
185,Narón,43.5167,-8.1528,63.16,77,0,6.51,ES
186,Camopi,3.1655,-52.3158,71.71,95,18,2.04,GF
187,Nizhnevartovsk,60.9344,76.5531,62.64,54,91,11.05,RU
188,Coyhaique,-45.5752,-72.0662,28.92,95,23,5.64,CL
189,Mossamedes,-15.1961,12.1522,65.97,72,0,4.03,AO
190,Ovsyanka,55.9575,92.5519,65.16,85,68,6.29,RU
191,Sitka,57.0531,-135.33,54.0,89,52,4.34,US
192,Baruun-Urt,46.6806,113.2792,75.96,60,71,5.44,MN
193,Los Llanos de Aridane,28.6585,-17.9182,69.8,77,52,14.25,ES
194,Souillac,-20.5167,57.5167,71.47,70,65,13.38,MU
195,Yangi Marg`ilon,40.4272,71.7189,94.53,49,71,2.55,UZ
196,Sur,22.5667,59.5289,92.39,59,71,4.74,OM
197,Taksimo,56.3444,114.8794,73.36,80,100,5.79,RU
198,Tashara,55.5195,83.5094,71.19,60,66,1.61,RU
199,Yueyang,29.3333,113.0919,76.44,94,100,3.04,CN
200,Kaspiysk,42.8816,47.6392,83.46,59,0,5.64,RU
201,Norman Wells,65.282,-126.8329,66.99,49,39,4.59,CA
202,High Level,58.5169,-117.136,68.34,62,10,4.0,CA
203,Novobirilyussy,56.9514,90.6661,73.29,69,64,1.03,RU
204,Meulaboh,4.1363,96.1285,84.88,66,97,6.17,ID
205,Kiunga,-6.1219,141.2906,80.58,86,84,1.48,PG
206,Arraial do Cabo,-22.9661,-42.0278,71.08,89,49,14.32,BR
207,Saint-Augustin,51.226,-58.6502,52.83,94,19,3.65,CA
208,Kirakira,-10.4544,161.9205,82.47,77,28,11.59,SB
209,Yar-Sale,66.8333,70.8333,58.71,63,98,11.56,RU
210,Dunedin,-45.8742,170.5036,49.21,71,0,7.72,NZ
211,Lishu,43.3047,124.3278,85.48,49,98,6.06,CN
212,Lebu,-37.6167,-73.65,47.46,83,60,6.93,CL
213,Porto Santo,33.072,-16.3415,69.49,78,69,15.55,PT
214,Santa Cruz de la Sierra,-17.8,-63.1667,65.73,75,3,7.27,BO
215,Noumea,-22.2763,166.4572,79.02,61,7,12.5,NC
216,Torbay,47.6666,-52.7314,56.44,99,95,12.12,CA
217,Kenora,49.8167,-94.4337,64.69,73,13,5.64,CA
218,Morondava,-20.2833,44.2833,67.48,60,0,5.68,MG
219,Katsina,12.9894,7.6006,77.86,74,98,15.21,NG
220,Vardø,70.3705,31.1107,59.83,74,21,7.16,NO
221,Tamandaré,-8.7597,-35.1047,74.12,80,96,10.74,BR
222,Coronel José Félix Bogado,-27.1833,-56.3,60.19,71,98,5.01,PY
223,Namatanai,-3.6667,152.4333,83.84,74,100,7.63,PG
224,Lorengau,-2.0226,147.2712,83.66,77,44,4.47,PG
225,Maniitsoq,65.4167,-52.9,45.84,92,97,4.85,GL
226,Saint George,37.1041,-113.5841,89.82,14,1,2.53,US
227,Tuatapere,-46.1333,167.6833,50.16,69,16,3.56,NZ
228,Tura,25.5198,90.2201,84.45,80,78,4.65,IN
229,Azanka,58.0401,64.7893,69.39,67,67,3.85,RU
230,Narsaq,60.9167,-46.05,45.36,86,18,1.19,GL
231,Banda Aceh,5.5577,95.3222,85.39,68,98,7.67,ID
232,Boende,-0.2167,20.8667,72.14,91,2,3.49,CD
233,Bolobo,-2.1667,16.2333,74.8,68,72,1.36,CD
234,Yerky,48.9906,30.9882,71.74,76,97,9.57,UA
235,Mahrīz,31.5917,54.4318,93.09,16,10,6.04,IR
236,Hobyo,5.3505,48.5268,82.71,68,20,20.22,SO
237,Saint-Raymond,45.467,-73.6095,76.21,86,73,12.37,CA
238,Sibolga,1.7427,98.7792,85.87,61,80,5.59,ID
239,Grindavik,63.8424,-22.4338,47.52,82,36,18.5,IS
240,Zverinogolovskoye,54.4586,64.8542,69.46,59,1,9.6,RU
241,Maralal,1.0968,36.698,61.65,87,61,0.54,KE
242,Avera,33.194,-82.5271,77.05,87,2,5.01,US
243,Penukonda,14.0833,77.5833,81.52,68,95,14.41,IN
244,Santiago del Estero,-27.7951,-64.2615,52.2,49,0,4.88,AR
245,Andenes,69.3143,16.1194,58.51,73,47,18.32,NO
246,Makuyuni,-4.7333,38.1,68.2,80,82,6.71,TZ
247,Maragogi,-9.0122,-35.2225,73.71,80,80,11.52,BR
248,San Patricio,19.2167,-104.7,79.21,81,99,3.31,MX
249,Tadine,-21.55,167.8833,74.08,73,21,12.53,NC
250,Maputo,-25.9653,32.5892,62.62,78,9,12.33,MZ
251,Jūnāgarh,19.8667,82.9333,93.2,55,97,4.56,IN
252,Grand Junction,39.0639,-108.5507,77.36,26,19,0.56,US
253,Olafsvik,64.8945,-23.7142,47.17,73,21,8.3,IS
254,Kosh-Agach,50.0,88.6667,66.42,45,94,1.3,RU
255,Grand Gaube,-20.0064,57.6608,71.37,74,89,19.39,MU
256,Kaeo,-35.1,173.7833,55.72,44,38,6.26,NZ
257,Churāchāndpur,24.3333,93.6667,74.25,93,100,1.39,IN
258,Beringovskiy,63.05,179.3167,71.51,54,91,9.26,RU
259,Mayumba,-3.432,10.6554,71.53,85,82,3.18,GA
260,Northam,51.0333,-4.2167,60.58,92,100,22.62,GB
261,Champerico,14.3,-91.9167,80.02,82,100,8.81,GT
262,Chokurdakh,70.6333,147.9167,48.07,64,96,10.13,RU
263,Paita,-5.0892,-81.1144,62.58,84,0,8.77,PE
264,Umm Kaddadah,13.6017,26.6876,80.64,63,42,13.91,SD
265,Mazagão,-0.115,-51.2894,76.17,96,27,2.84,BR
266,Berëzovka,53.7214,25.4993,69.48,87,44,2.84,BY
267,Rawson,-43.3002,-65.1023,41.63,78,95,13.6,AR
268,Cidreira,-30.1811,-50.2056,55.63,88,82,5.5,BR
269,Longyearbyen,78.2186,15.6401,57.99,66,4,4.21,SJ
270,Helong,42.5397,128.9972,76.41,65,97,9.6,CN
271,Kapoeta,4.7717,33.5903,76.08,78,94,1.88,SS
272,Broken Hill,-31.95,141.4333,58.75,55,53,19.24,AU
273,Al Bardīyah,31.7561,25.0865,78.73,82,0,13.6,LY
274,Altoona,40.5187,-78.3947,68.0,81,87,4.03,US
275,Nuuk,64.1835,-51.7216,46.26,92,99,0.85,GL
276,Trincomalee,8.5711,81.2335,82.69,75,98,12.95,LK
277,Virden,39.5009,-89.7679,76.77,90,1,5.32,US
278,Kruisfontein,-34.0033,24.7314,49.35,77,81,3.42,ZA
279,Porbandar,21.6422,69.6093,86.05,78,4,12.91,IN
280,Kumul,42.8,93.45,96.24,12,1,10.49,CN
281,Tiksi,71.6872,128.8694,38.52,91,100,6.44,RU
282,Córdoba,-31.4135,-64.1811,49.24,46,6,8.79,AR
283,Clyde River,70.4692,-68.5914,42.06,84,93,3.02,CA
284,Lavrentiya,65.5833,-171.0,64.02,55,67,14.79,RU
285,Dessie,11.1333,39.6333,56.57,92,100,3.98,ET
286,Landázuri,6.2183,-73.8112,64.99,95,87,3.8,CO
287,Rantauprapat,2.1,99.8333,87.94,66,93,4.79,ID
288,Sibu,2.3,111.8167,87.06,79,63,2.33,MY
289,Mafinga,-7.25,35.0667,67.64,67,81,5.26,TZ
290,Iāwar,23.0,76.5,87.66,71,7,6.35,IN
291,Sorong,-0.8833,131.25,82.04,83,87,10.49,ID
292,Faanui,-16.4833,-151.75,79.36,77,100,16.06,PF
293,Russkiy Aktash,55.0384,52.1214,66.88,80,23,7.74,RU
294,Sinjār,36.3209,41.8754,103.06,13,86,2.35,IQ
295,Lagoa,39.05,-27.9833,72.27,93,1,4.09,PT
296,Medicine Hat,50.0501,-110.6683,67.06,44,10,4.99,CA
297,Lázaro Cárdenas,17.9583,-102.2,79.0,79,45,4.29,MX
298,Salalah,17.0151,54.0924,78.91,88,87,4.85,OM
299,Xinyang,32.1228,114.0656,79.77,82,95,3.09,CN
300,Juneau,58.3019,-134.4197,54.84,83,74,0.2,US
301,Shihezi,44.3,86.0333,95.4,18,75,3.56,CN
302,Margate,51.3813,1.3862,60.78,89,100,15.52,GB
303,East London,-33.0153,27.9116,57.47,68,71,6.51,ZA
304,Touros,-5.1989,-35.4608,72.18,91,80,11.45,BR
305,Crestview,30.7621,-86.5705,75.72,86,79,0.6,US
306,Isangel,-19.55,169.2667,79.5,73,26,15.75,VU
307,Aykhal,66.0,111.5,45.14,74,84,10.92,RU
308,Tibati,6.4667,12.6333,66.56,97,100,3.89,CM
309,Iquitos,-3.7481,-73.2472,71.08,98,97,1.68,PE
310,Sotouboua,8.5667,0.9833,70.66,92,92,1.81,TG
311,Mariehamn,60.0973,19.9348,63.14,89,83,17.18,AX
312,Cherskiy,68.75,161.3,50.23,73,62,28.12,RU
313,Shetpe,44.1667,52.1167,85.42,20,63,19.17,KZ
314,Victor Harbor,-35.5667,138.6167,56.05,69,44,14.29,AU
315,Río Gallegos,-51.6226,-69.2181,31.51,91,8,20.6,AR
316,Tondano,1.3038,124.9112,77.16,83,58,5.17,ID
317,Baft,29.234,56.6057,83.21,17,0,4.9,IR
318,Urucará,-2.5364,-57.76,75.51,67,6,1.21,BR
319,Mizdah,31.4451,12.9801,74.97,47,0,1.14,LY
320,General Roca,-39.0333,-67.5833,43.3,61,0,18.72,AR
321,Qurayyat,31.3318,37.3428,96.62,30,11,2.06,SA
322,Kalvarija,54.4,23.2333,67.59,84,27,3.4,LT
323,Kloulklubed,7.0419,134.2556,84.27,75,93,12.12,PW
324,Mackay,-21.15,149.2,72.32,47,0,10.09,AU
325,Turaif,31.6725,38.6637,99.59,23,0,12.03,SA
326,Martinópolis,-22.1458,-51.1708,65.66,65,80,9.1,BR
327,Makakilo City,21.3469,-158.0858,79.34,69,87,8.52,US
328,Sabha,27.0377,14.4283,79.84,35,0,11.54,LY
329,Fortuna,40.5982,-124.1573,58.51,86,54,0.63,US
330,Agadez,19.75,10.25,85.68,16,62,12.93,NE
331,Bosobolo,4.1833,19.9,69.55,96,60,1.57,CD
332,Puerto Asís,0.5133,-76.5007,70.41,98,97,1.79,CO
333,Vidalia,32.2177,-82.4135,78.35,74,1,6.02,US
334,Imeni Poliny Osipenko,52.4201,136.4853,78.53,57,47,1.95,RU
335,Rosarito,32.3333,-117.0333,67.78,80,11,7.05,MX
336,Kemijärvi,66.7131,27.4306,60.35,81,1,2.51,FI
337,Bella Union,-30.2752,-57.6007,47.34,82,1,3.76,UY
338,Yantal',56.8471,105.2542,79.75,38,100,3.62,RU
339,Padang,-0.9492,100.3543,84.65,68,89,5.68,ID
340,Grand Baie,-20.0182,57.5802,71.56,73,89,19.3,MU
341,Palmer,42.1584,-72.3287,72.41,80,87,4.76,US
342,Buin,-33.7333,-70.75,49.69,69,95,2.57,CL
343,Batemans Bay,-35.7167,150.1833,54.77,95,100,26.26,AU
344,Havøysund,70.9963,24.6622,62.02,67,27,12.44,NO
345,Asău,46.4333,26.4,73.27,67,91,2.57,RO
346,Kuznechnoye,61.12,29.8686,65.88,72,6,5.91,RU
347,Dalvik,65.9702,-18.5286,43.65,78,84,3.47,IS
348,Hambantota,6.1241,81.1185,83.14,72,87,17.58,LK
349,Castelfidardo,43.4632,13.5452,75.72,65,1,3.49,IT
350,Kedrovyy,56.1667,91.8167,61.61,91,66,5.14,RU
351,Bogdan Vodă,47.692,24.2661,65.7,85,42,1.41,RO
352,Mehamn,71.0357,27.8492,64.74,61,11,12.66,NO
353,Berlevåg,70.8578,29.0864,64.2,62,2,13.09,NO
354,Naples,40.8333,14.25,79.77,64,0,2.46,IT
355,Terekli-Mekteb,44.1671,45.8698,88.07,47,7,11.88,RU
356,Çermik,38.1361,39.4493,89.74,30,0,2.04,TR
357,Porto-Novo,6.4965,2.6036,74.98,89,55,6.96,BJ
358,Khudumelapye,-23.8833,24.75,47.53,51,0,6.4,BW
359,Roald,62.5833,6.1333,58.98,83,100,9.98,NO
360,Avanigadda,16.0215,80.9181,94.64,60,51,11.14,IN
361,Ajdabiya,30.7554,20.2263,77.63,62,0,6.67,LY
362,Sinnamary,5.3833,-52.95,78.58,85,53,5.88,GF
363,Salmo,49.1999,-117.2689,67.55,51,0,3.51,CA
364,Karratha,-20.7377,116.8463,78.55,21,52,14.07,AU
365,Phonhong,18.5007,102.4166,87.19,77,87,4.27,LA
366,Arman',59.7,150.1667,63.57,63,0,8.23,RU
367,Kaduna,10.5222,7.4383,70.09,92,100,3.78,NG
368,Araouane,18.9048,-3.5265,94.46,33,72,7.67,ML
369,Peniche,39.3558,-9.3811,65.26,90,0,16.6,PT
370,Saint-Joseph,-21.3667,55.6167,69.71,67,50,7.76,RE
371,Ixtapa,20.7,-105.2,80.76,81,87,1.39,MX
372,São Geraldo do Araguaia,-6.4006,-48.555,70.93,47,2,2.75,BR
373,Paranaguá,-25.52,-48.5092,56.57,93,90,1.97,BR
374,Zhuhai,22.2769,113.5678,90.3,68,67,16.2,CN
375,Gao,16.6362,1.637,90.79,41,44,8.63,ML
376,Ilave,-16.0833,-69.6667,30.11,79,1,4.07,PE
377,Lanzhou,36.0564,103.7922,88.88,19,93,4.16,CN
378,Talnakh,69.4865,88.3972,59.13,44,71,5.3,RU
379,Departamento de Maldonado,-34.6667,-54.9167,47.8,85,17,10.18,UY
380,Ostrovnoy,68.0531,39.5131,63.99,72,88,0.78,RU
381,Ancud,-41.8697,-73.8203,41.29,73,19,4.74,CL
382,Houston,29.7633,-95.3633,81.64,81,70,7.61,US
383,Pangnirtung,66.1451,-65.7125,51.31,70,100,2.28,CA
384,Burgeo,47.6167,-57.6152,59.27,93,81,1.54,CA
385,Yazykovo,55.2199,56.1353,63.99,87,98,6.06,RU
386,Adrar,20.5022,-10.0711,88.83,35,0,8.66,MR
387,Naze,28.3667,129.4833,84.72,81,87,12.68,JP
388,Olinda,-8.0089,-34.8553,77.34,73,69,13.89,BR
389,Turukhansk,65.8167,87.9833,62.02,54,46,16.84,RU
390,Brae,60.3964,-1.353,55.08,81,2,10.42,GB
391,Changji,44.0167,87.3167,98.87,18,97,13.76,CN
392,Cairns,-16.9167,145.7667,79.18,41,5,9.93,AU
393,Henties Bay,-22.116,14.2845,67.42,41,0,9.6,NA
394,Diplo,24.4667,69.584,94.14,57,3,12.53,PK
395,Malbork,54.0359,19.0266,64.69,92,86,5.1,PL
396,Birmitrapur,22.4,84.7667,94.05,58,79,0.89,IN
397,Zhezkazgan,47.8043,67.7144,87.78,23,0,17.58,KZ
398,Pitimbu,-7.4706,-34.8086,75.13,80,99,15.01,BR
399,Guane,22.2025,-84.0875,79.09,88,100,6.42,CU
400,Kostino,58.9097,53.2691,70.81,68,0,3.71,RU
401,Ilulissat,69.2167,-51.1,43.72,92,100,6.31,GL
402,Moose Factory,51.2585,-80.6094,72.81,84,83,5.35,CA
403,George Town,5.4112,100.3354,87.35,67,50,8.57,MY
404,Poyarkovo,49.6,128.6833,89.94,46,4,10.94,RU
405,Kinkala,-4.3614,14.7644,66.6,75,33,5.44,CG
406,Praia da Vitória,38.7333,-27.0667,72.43,91,53,4.54,PT
407,Fernie,49.5,-115.0687,68.09,34,3,5.03,CA
408,Aasiaat,68.7098,-52.8699,41.94,94,100,15.08,GL
409,Nevşehir,38.9167,34.6667,82.0,30,0,2.08,TR
410,Raja,8.4596,25.678,72.54,91,68,5.79,SS
411,Owando,-0.4819,15.8999,72.23,90,21,4.09,CG
412,Bayan,46.0833,127.4,91.11,42,0,7.99,CN
413,Kunshan,31.3776,120.9543,87.19,78,59,2.89,CN
414,Caravelas,-17.7125,-39.2481,70.11,84,27,5.82,BR
415,Saint-François,46.4154,3.9054,63.28,84,0,3.02,FR
416,Port-Gentil,-0.7193,8.7815,74.77,84,64,10.16,GA
417,Nhulunbuy,-12.2333,136.7667,78.89,58,69,18.21,AU
418,Torres,-29.3353,-49.7269,56.52,86,100,4.94,BR
419,Mitsamiouli,-11.3847,43.2844,76.48,74,99,11.01,KM
420,Coquimbo,-29.9533,-71.3436,56.93,69,99,5.08,CL
421,Saint-Pierre,-21.3393,55.4781,72.0,63,51,3.51,RE
422,Makkah al Mukarramah,21.4267,39.8261,94.39,46,49,6.29,SA
423,Alappuzha,9.49,76.3264,81.52,80,70,6.8,IN
424,Humberto de Campos,-2.5983,-43.4611,73.58,91,0,2.39,BR
425,Titay,7.8125,122.5344,83.68,76,17,1.03,PH
426,Gazli,40.1333,63.45,99.03,12,0,13.24,UZ
427,Novocheremshansk,54.3571,50.1666,68.16,76,2,6.67,RU
428,Colares,38.7992,-9.4469,66.0,83,0,19.42,PT
429,Kaitangata,-46.2817,169.8464,49.68,74,0,3.33,NZ
430,Disna,55.568,28.1971,66.85,82,0,5.95,BY
431,Povenets,62.8487,34.8262,65.1,80,0,0.74,RU
432,Rabo de Peixe,37.8,-25.5833,69.91,92,55,6.42,PT
433,Vila Velha,-20.3297,-40.2925,71.96,86,67,5.55,BR
434,Puerto Escondido,15.85,-97.0667,80.96,78,100,5.01,MX
435,Hastings,50.8552,0.5729,61.34,93,100,12.5,GB
436,Kamen'-Rybolov,44.7481,132.0403,75.45,70,1,7.65,RU
437,Matamoros,25.5333,-103.25,73.81,65,89,7.63,MX
438,Port Elizabeth,-33.918,25.5701,53.35,81,87,5.91,ZA
439,Nyeri,-0.4201,36.9476,61.59,82,67,2.93,KE
440,Dawson Creek,55.7666,-120.2362,68.65,56,1,7.38,CA
441,Fukuechō,32.6881,128.8419,79.21,94,87,16.15,JP
442,Alta Floresta,-9.8756,-56.0861,69.55,54,0,3.8,BR
443,Verkhoyansk,67.5447,133.385,71.28,33,42,11.25,RU
444,Atasū,48.6814,71.6433,82.36,37,71,14.5,KZ
445,Kjøllefjord,70.9457,27.3465,64.4,63,34,12.59,NO
446,Wetaskiwin,52.9668,-113.3687,62.53,77,12,9.51,CA
447,Necochea,-38.5473,-58.7368,47.53,70,86,14.03,AR
448,Buta,2.7858,24.73,71.38,90,17,2.37,CD
449,Alanya,36.5438,31.9998,84.92,72,0,4.14,TR
450,Seoul,37.5683,126.9778,79.45,75,87,0.2,KR
451,Tornabé,15.75,-87.55,79.07,83,78,4.16,HN
452,Bangui,4.3612,18.555,70.41,92,27,1.72,CF
453,Pinheiro,-2.5214,-45.0825,70.2,88,0,0.78,BR
454,Samarai,-10.6167,150.6667,80.08,83,28,11.27,PG
455,El Vigia,8.6219,-71.6506,75.78,75,90,3.87,VE
456,Cap-aux-Meules,47.3821,-61.8597,64.65,90,21,2.26,CA
457,Priyutovo,53.9,53.9333,64.17,84,32,9.69,RU
458,Impfondo,1.6381,18.0667,71.06,94,41,1.68,CG
459,Guarapari,-20.6667,-40.4975,69.42,90,56,4.47,BR
460,Bathsheba,13.2167,-59.5167,82.31,80,91,14.61,BB
461,Erdenet,49.0333,104.0833,70.34,57,35,7.78,MN
462,Rafsanjān,30.4067,55.9939,90.93,14,0,5.68,IR
463,Ahipara,-35.1667,173.1667,56.07,64,46,4.76,NZ
464,Rio Grande,-32.035,-52.0986,49.1,90,24,6.49,BR
465,Ţahţā,26.7693,31.5021,89.29,30,0,14.16,EG
466,Mikuni,36.2171,136.1519,84.9,65,87,12.88,JP
467,Tyukhtet,56.5389,89.3011,70.7,61,14,6.58,RU
468,Taoudenni,22.6783,-3.9836,93.07,11,62,6.85,ML
469,Abramovka,51.1886,41.0202,70.21,63,71,9.01,RU
470,Lüderitz,-26.6481,15.1594,63.34,56,0,8.39,NA
471,Severobaykal'sk,55.65,109.3167,57.38,82,100,1.7,RU
472,Pushkinskiye Gory,57.0209,28.9103,66.96,78,0,3.83,RU
473,College,64.8569,-147.8028,61.68,69,52,4.92,US
474,Esim,4.8699,-2.2405,74.03,86,14,9.13,GH
475,Morgan City,29.6994,-91.2068,73.72,96,69,4.34,US
476,Dahra,36.2546,0.8519,83.37,24,0,0.81,DZ
477,Matagami,49.7502,-77.6328,70.18,90,42,5.01,CA
478,Suba,10.8438,121.0102,84.63,68,40,3.44,PH
479,Visby,57.6409,18.296,61.9,88,83,9.1,SE
480,Fare,-16.7,-151.0167,79.93,76,100,17.0,PF
481,Lahān,26.7296,86.4951,94.86,55,68,6.08,NP
482,Tunceli,39.1083,39.5471,86.95,31,0,3.33,TR
483,Salisbury,51.0693,-1.7957,58.71,93,100,11.95,GB
484,Jatibarang,-6.4747,108.3153,91.47,43,10,11.25,ID
485,Puerto Madryn,-42.7692,-65.0385,41.02,83,97,15.88,AR
486,Rincon,32.296,-81.2354,75.94,83,30,3.44,US
487,Tynset,62.2759,10.7824,53.92,93,100,7.43,NO
488,Balikpapan,-1.2675,116.8289,81.64,79,100,8.5,ID
489,Paamiut,61.994,-49.6678,44.58,92,50,2.57,GL
490,Tuensang,26.2833,94.8333,83.62,70,86,1.9,IN
491,São Miguel do Araguaia,-13.275,-50.1628,67.48,45,0,4.43,BR
492,Qaqortoq,60.7167,-46.0333,44.98,87,11,0.43,GL
493,Sioux Lookout,50.1001,-91.917,65.44,67,12,8.03,CA
494,Nome,64.5011,-165.4064,54.7,84,94,9.69,US
495,Amga,60.8953,131.9608,79.36,38,100,2.15,RU
496,Bāpatla,15.9,80.4667,92.86,58,47,10.94,IN
497,Kokkola,63.8385,23.1307,63.81,75,26,11.18,FI
498,Chernyshevskiy,63.0128,112.4714,66.34,45,0,6.78,RU
499,Maricá,-22.9194,-42.8186,70.0,85,21,4.36,BR
500,Tayshet,55.9342,98.0044,66.22,89,93,8.52,RU
501,Almaznyy,48.0448,40.045,78.4,32,60,11.03,RU
502,Solnechnyy,50.7214,136.6319,76.24,75,85,3.0,RU
503,Abu Samrah,35.3029,37.1841,88.84,29,63,2.24,SY
504,Krasnoarmeyskiy,47.0114,42.2072,85.33,25,98,15.21,RU
505,Dabat,12.9842,37.765,53.56,100,100,2.04,ET
506,Baracoa,20.3467,-74.4958,80.49,84,60,7.05,CU
507,Tilichiki,60.4667,166.1,70.47,47,0,7.49,RU
508,Koumac,-20.5667,164.2833,74.37,70,31,3.24,NC
509,Desbiens,48.4178,-71.9495,68.79,95,53,6.38,CA
510,Ghātampur,26.1667,80.1667,101.3,38,2,9.46,IN
511,Māngrol,21.1167,70.1167,85.46,76,12,14.63,IN
512,Nouadhibou,20.931,-17.0347,73.42,79,0,17.09,MR
513,Ossora,59.2353,163.0719,65.59,56,0,5.44,RU
514,Tuntum,-5.2581,-44.6489,68.29,48,0,2.95,BR
515,Moroni,-11.7022,43.2551,74.44,76,96,16.4,KM
516,Kousséri,12.0769,15.0306,76.96,87,69,9.48,CM
517,Sakakah,29.9697,40.2064,102.79,26,20,5.64,SA
518,Te Anau,-45.4167,167.7167,45.88,78,9,0.22,NZ
519,Gamba,-2.65,10.0,72.3,85,79,4.94,GA
520,Burns Lake,54.2331,-125.7533,66.31,53,0,3.4,CA
521,Rundu,-17.9333,19.7667,47.25,57,0,5.66,NA
522,Hirado,33.3597,129.5531,76.8,92,87,17.67,JP
523,Pretoria,-25.7449,28.1878,46.78,61,0,15.37,ZA
524,Labuhan,-6.8844,112.2051,85.73,57,83,5.66,ID
525,Mergen,49.1833,125.2167,91.71,38,28,11.3,CN
526,Lianzhou,24.7811,112.3825,92.34,61,100,4.34,CN
527,Nagato,34.3833,131.2,77.04,96,87,5.59,JP
528,Yenagoa,4.9247,6.2642,74.17,93,100,3.8,NG
529,Juegang,32.3174,121.1855,81.93,87,100,10.07,CN
530,Conakry,9.538,-13.6773,77.27,85,100,15.41,GN
531,Ayan,56.45,138.1667,60.69,76,9,15.37,RU
532,Jagalūr,14.5333,76.35,81.01,73,69,14.92,IN
533,Anshun,26.25,105.9333,82.02,52,0,10.42,CN
534,Selenginsk,52.0064,106.8647,68.38,82,87,6.85,RU
535,Thinadhoo,0.5333,72.9333,82.67,71,93,6.44,MV
536,Sisimiut,66.9395,-53.6735,45.09,94,100,11.25,GL
537,Quatre Cocos,-20.2078,57.7625,71.06,71,81,14.88,MU
538,Humaitá,-7.5061,-63.0208,74.71,61,49,1.28,BR
539,Salym,60.0625,71.4789,65.98,68,67,8.3,RU
540,Najrān,17.4924,44.1277,85.78,58,29,15.61,SA
541,Dossor,47.5272,52.9811,83.73,29,1,11.72,KZ
542,Strezhevoy,60.7333,77.5889,63.39,53,55,9.33,RU
543,Saint Anthony,45.0205,-93.218,71.51,57,2,7.36,US
544,Suntar,62.1444,117.6319,72.5,50,80,7.02,RU
545,Longkou,37.6508,120.3286,77.74,74,3,6.96,CN
546,Moerai,-22.4333,-151.3333,73.0,78,100,9.04,PF
547,Hare Bay,48.8499,-54.0148,59.56,95,88,4.45,CA
548,Pisco,-13.7,-76.2167,58.59,85,46,2.35,PE
549,Lensk,60.7253,114.9278,74.55,47,100,11.77,RU
550,Cap Malheureux,-19.9842,57.6142,71.58,74,90,19.8,MU
551,Nelson,-41.2833,173.2833,52.16,77,0,2.33,NZ
552,Saint-Louis,16.3333,-15.0,79.47,70,51,8.66,SN
553,La Primavera,5.4906,-70.4092,72.66,93,79,2.71,CO
554,Ucluelet,48.9329,-125.5528,63.88,73,6,6.73,CA
555,Taiyuan,37.8694,112.5603,87.15,51,32,2.21,CN
556,Rakitnoye,50.8389,35.8515,71.06,62,82,12.08,RU
557,Codrington,-38.2667,141.9667,53.56,72,46,17.83,AU
558,Ternate,0.8,127.4,80.62,78,100,2.53,ID
559,Bowling Green,36.9903,-86.4436,73.98,91,14,4.38,US
560,Zyryanka,65.75,150.85,76.19,57,99,5.95,RU
561,Jumla,29.2747,82.1838,77.4,52,59,6.26,NP
562,Cascais,38.6979,-9.4215,66.45,81,0,17.94,PT
563,Saldanha,-33.0117,17.9442,51.1,78,0,10.2,ZA
564,Manacapuru,-3.2997,-60.6206,76.6,81,0,2.48,BR
565,Kieta,-6.2167,155.6333,83.12,72,97,5.08,PG
566,Luganville,-15.5333,167.1667,80.56,78,84,13.4,VU
567,Dingle,10.9995,122.6711,87.39,69,57,4.43,PH
568,‘Āhuimanu,21.4447,-157.8378,79.61,74,95,8.37,US
569,Pangkalanbuun,-2.6833,111.6167,86.94,64,77,5.41,ID
570,Shostka,51.863,33.4698,69.85,78,29,7.83,UA
571,Lāsalgaon,20.15,74.2333,83.37,75,4,9.48,IN
572,Waitati,-45.75,170.5667,48.72,76,0,4.16,NZ
573,Pedasí,7.5333,-80.0333,79.02,80,17,3.96,PA
574,Wuwei,37.9281,102.6414,91.44,26,78,10.0,CN
575,Manggar,-2.8833,108.2667,82.85,70,81,13.47,ID
576,São Félix do Xingu,-6.6447,-51.995,69.17,62,0,1.63,BR
577,Ballarat,-37.5662,143.8496,49.77,85,56,10.67,AU
578,Kudahuvadhoo,2.6708,72.8944,82.62,68,89,4.83,MV
579,Nelson Bay,-32.7167,152.15,58.98,85,95,24.92,AU
580,Alice Springs,-23.7,133.8833,67.08,34,0,14.38,AU
581,Svetlaya,46.5389,138.3297,69.04,71,76,7.92,RU
582,Santa Maria,-29.6842,-53.8069,51.48,86,15,1.39,BR
583,Merauke,-8.4667,140.3333,80.92,76,60,19.26,ID
584,Byron Bay,-28.65,153.6167,63.27,55,0,16.96,AU
585,Gander,48.9682,-54.5906,58.96,96,71,5.14,CA
586,Malaryta,51.7905,24.074,70.95,83,39,2.15,BY
587,Batagay-Alyta,67.8006,130.4114,64.17,35,78,12.37,RU
588,São Gabriel da Cachoeira,-0.1303,-67.0892,73.09,96,63,1.54,BR
589,Dwārka,22.2394,68.9678,86.0,78,38,14.72,IN
590,São José da Coroa Grande,-8.8978,-35.1478,74.08,79,87,11.56,BR
591,Tegul'det,57.3064,88.1667,71.53,48,26,6.13,RU
592,Baykit,61.67,96.37,65.46,73,58,8.25,RU
593,Tres Picos,15.8667,-93.5333,78.48,81,100,2.91,MX
594,Yumaguzino,52.9041,56.3933,64.2,82,96,10.56,RU
595,Ginir,7.1333,40.7,63.82,80,75,10.42,ET
596,Muzhi,65.3667,64.6667,62.62,59,76,5.95,RU
597,Kaniama,-7.5667,24.1833,65.62,40,19,9.13,CD
598,Aljezur,37.3191,-8.8033,70.74,66,0,7.85,PT
599,Panabá,21.2833,-88.2667,77.77,89,89,7.74,MX
600,Jinsha,32.0898,121.0735,82.92,86,100,5.57,CN
601,Alyangula,-13.8483,136.4192,75.63,55,90,15.61,AU
602,Alexandria,31.2156,29.9553,80.51,70,0,9.17,EG
603,Muskogee,35.5834,-95.3336,78.31,82,26,5.41,US
604,Båtsfjord,70.6345,29.7185,64.44,68,3,11.83,NO
605,Bima,-8.4667,118.7167,88.0,49,17,8.84,ID
606,Ust'-Katav,54.9369,58.1656,59.02,91,100,0.85,RU
607,Katherine,-14.4667,132.2667,87.73,15,100,10.89,AU
608,Choctaw,35.4976,-97.2689,79.29,77,16,11.9,US
609,Vestmanna,62.1564,-7.1664,46.54,94,100,15.43,FO
610,Inuvik,68.3499,-133.7218,67.05,50,87,3.27,CA
611,Iracoubo,5.4802,-53.2011,78.46,86,42,6.31,GF
612,Kalmunai,7.4167,81.8167,83.01,69,98,6.4,LK
613,Nurota,40.5614,65.6886,94.55,19,0,17.56,UZ
614,San Cristobal,7.7669,-72.225,64.38,85,65,2.35,VE
615,Hrubieszów,50.805,23.8925,68.31,86,76,2.48,PL
616,Kajaani,64.2273,27.7285,65.01,69,14,3.65,FI
617,Zelenoborsk,61.4669,64.0333,68.68,56,2,8.93,RU
618,Evensk,61.95,159.2333,55.27,84,95,11.77,RU
619,Cabra,37.4725,-4.4421,76.98,50,28,1.54,ES
620,Salinas,36.6777,-121.6555,59.7,81,15,1.12,US
621,Eureka,40.8021,-124.1637,57.45,93,44,0.31,US
622,Thoen,17.6129,99.2161,91.47,64,100,2.82,TH
623,Izazi,-7.2,35.7333,72.23,68,88,1.83,TZ
624,Oktyabr'skoye,43.0645,44.7417,75.52,79,8,1.66,RU
625,Nikel,69.4128,30.222,65.12,66,55,11.32,RU
626,Middlebury (village),44.0153,-73.1673,75.38,78,47,8.19,US
627,Eyemouth,55.8713,-2.0901,56.07,88,97,8.55,GB
628,San Matías,-16.3667,-58.4,68.04,55,17,2.3,BO
629,Lagos,6.5833,3.75,75.92,87,65,5.99,NG
630,Ligayan,4.6533,119.4706,84.13,70,64,6.82,PH
631,Kiama,-34.6833,150.8667,56.88,93,100,28.66,AU
632,Bhopal,23.2667,77.4,88.95,67,17,6.08,IN
633,Ust-Nera,64.5667,143.2,74.44,28,28,17.43,RU
634,Aden,12.7794,45.0367,86.23,75,62,9.42,YE
635,Orocué,4.7912,-71.3354,73.24,89,89,2.28,CO
636,Shëngjin,41.8136,19.5939,77.04,71,0,5.03,AL
637,Hervey Bay,-25.2986,152.8535,67.51,54,16,13.8,AU
638,Portsmouth,50.799,-1.0913,61.29,87,99,14.63,GB
639,Tessalit,20.1986,1.0114,90.73,32,80,2.73,ML
640,Rafai,4.95,23.9167,69.3,94,57,2.42,CF
641,Amuntai,-2.4177,115.2494,93.7,50,16,1.14,ID
642,Perth,-31.9333,115.8333,71.44,52,19,20.24,AU
643,Ambulu,-8.345,113.6058,83.66,65,38,10.8,ID
644,Shādegān,30.6497,48.6647,112.96,43,33,9.44,IR
645,Uvinza,-5.1036,30.3911,70.34,54,51,8.99,TZ
646,Riyadh,24.6877,46.7219,100.76,24,40,0.89,SA
647,Homer,59.6425,-151.5483,55.87,80,1,1.97,US
648,Novyy Urgal,51.0736,132.5642,84.69,60,79,2.71,RU
649,Charters Towers,-20.1,146.2667,73.2,30,0,10.76,AU
650,Malia,35.2833,25.4667,82.04,50,0,5.93,GR
651,Forestville,38.8451,-76.875,77.36,64,2,3.47,US
652,Mount Isa,-20.7333,139.5,73.8,20,0,18.28,AU
653,Tautira,-17.7333,-149.15,79.54,77,75,11.54,PF
654,Itarema,-2.9248,-39.9167,75.54,83,85,13.24,BR
655,Black Forest,39.0131,-104.7008,59.22,87,95,4.83,US
656,Zheleznodorozhnyy,55.7503,38.0042,67.86,75,100,5.75,RU
657,Nantucket,41.2835,-70.0995,76.23,90,69,17.76,US
658,Kenai,60.5544,-151.2583,59.2,70,5,8.84,US
659,Sosnovo-Ozerskoye,52.5249,111.5418,61.34,96,100,10.63,RU
660,Tres Arroyos,-38.3739,-60.2798,47.3,55,94,13.71,AR
661,Buchanan,5.8808,-10.0467,74.86,82,94,7.02,LR
662,Kalabo,-14.97,22.6814,54.09,60,1,6.02,ZM
663,Lodwar,3.1191,35.5973,76.59,67,24,5.84,KE
664,Pathein,16.7833,94.7333,91.44,61,100,6.4,MM
665,Copala,16.65,-98.9833,79.56,76,98,5.73,MX
666,Arlit,18.7369,7.3853,89.6,14,60,8.57,NE
667,Poum,-20.2333,164.0167,73.76,77,43,6.2,NC
668,Marawi,7.9986,124.2928,80.17,85,45,2.04,PH
669,Voroshnëvo,51.6528,36.0172,71.02,73,65,8.72,RU
670,Kendari,-3.945,122.4989,83.66,67,87,8.3,ID
671,Virginia Beach,36.8529,-75.978,79.66,80,20,11.72,US
672,Havre-St-Pierre,50.2334,-63.5986,61.12,83,86,3.02,CA
673,Comodoro Rivadavia,-45.8667,-67.5,37.31,66,66,14.12,AR
674,Flinders,-34.5833,150.8552,56.66,92,100,28.12,AU
675,Rodrigues Alves,-7.738,-72.6509,70.14,94,3,1.21,BR
676,Levice,48.2156,18.6071,68.2,84,22,4.38,SK
677,Øksfjord,70.2396,22.3479,63.91,67,1,11.74,NO
678,Teruel,40.6667,-0.6667,69.33,67,0,8.84,ES
679,Brigantine,39.4101,-74.3646,79.56,72,33,9.75,US
680,Lumphat,13.4878,106.9816,90.45,70,65,3.13,KH
681,La Santisima Trinidad,-14.8333,-64.9,66.04,64,20,2.84,BO
682,Garden City,42.3256,-83.331,80.04,75,12,11.92,US
